[
  {
    "title": "Dinas Pemberdayaan Perempuan dan Perlindungan Anak Aceh",
    "street": "Jl. Tgk. Batee Timoh No.2",
    "city": "Kota Banda Aceh",
    "state": "Aceh",
    "website": "https://dinaspppa.acehprov.go.id/",
    "phone": "+62 651 33095",
    "latitude": "5.5752749",
    "longitude": "95.341",
    "url": "https://www.google.com/maps/place/Dinas+Pemberdayaan+Perempuan+dan+Perlindungan+Anak+Aceh/@5.5752749,95.341,17z/data=!3m1!4b1!4m6!3m5!1s0x304037021555556d:0x7b48a5f3a92a8a6b!8m2!3d5.5752749!4d95.341!16s%2Fg%2F11g900qls6?hl=id"
  },
  {
    "title": "Dinas Pemberdayaan Perempuan, Perlindungan Anak dan Pemberdayaan Masyarakat Kota Medan",
    "street": "Jl. Jenderal Besar A.H. Nasution No.112",
    "city": "Kota Medan",
    "state": "Sumatera Utara",
    "website": null,
    "phone": "+62 61 42774255",
    "latitude": "3.5407528",
    "longitude": "98.6605869",
    "url": "https://www.google.com/maps/place/DINAS+PEMBERDAYAAN+PEREMPUAN,+PERLINDUNGAN+ANAK+DAN+PEMBERDAYAAN+MASYARAKAT+KOTA+MEDAN/@3.5407528,98.6605869,17z/data=!3m1!4b1!4m6!3m5!1s0x3031300005acc3d1:0xdd72728fdb20c93!8m2!3d3.5407528!4d98.6605869!16s%2Fg%2F11hb62fhf7?hl=id"
  },
  {
    "title": "Dinas Pemberdayaan Perempuan & perlindungan Anak Prov Sumbar",
    "street": "Jl. Rasuna Said No.74",
    "city": "Kota Padang",
    "state": "Sumatera Barat",
    "website": null,
    "phone": "+62 751 7053781",
    "latitude": "-0.9299917",
    "longitude": "100.3617248",
    "categoryName": "Lembaga Swadaya Masyarakat (LSM)",
    "url": "https://www.google.com/maps/place/Dinas+Pemberdayaan+Perempuan+%26+perlindungan+Anak+Prov+Sumbar/@-0.9299917,100.3617248,17z/data=!3m1!4b1!4m6!3m5!1s0x2fd4b9262b37a52b:0xf9bd808105669206!8m2!3d-0.9299917!4d100.3617248!16s%2Fg%2F11b7ljfxh2?hl=id"
  },
  {
    "title": "UPT Perlindungan Perempuan dan Anak Kota Pekanbaru",
    "street": "Jl. Dagang No.78",
    "city": "Kota Pekanbaru",
    "state": "Riau",
    "website": null,
    "phone": "+62 812-7799-3737",
    "latitude": "0.5105988",
    "longitude": "101.4385812",
    "url": "https://www.google.com/maps/place/UPT+PERLINDUNGAN+PEREMPUAN+DAN+ANAK+KOTA+PEKANBARU/@0.5105988,101.4385812,17z/data=!3m1!4b1!4m6!3m5!1s0x31d5af42bec30021:0x5786d33abdde0f20!8m2!3d0.5105988!4d101.4385812!16s%2Fg%2F11ghlwl6dg?hl=id"
  },
  {
    "title": "DINAS PEMBERDAYAAN PEREMPUAN, PERLINDUNGAN ANAK, PENGENDALIAN PENDUDUK DAN KELUARGA BERENCANA (P3KB) KOTA BENGKULU",
    "street": "Jl. Musium No.6",
    "city": "Kota Bengkulu",
    "state": "Bengkulu",
    "website": null,
    "phone": "+62 736 346373",
    "latitude": "-3.8143923",
    "longitude": "102.2866442",
    "url": "https://www.google.com/maps/place/DINAS+PEMBERDAYAAN+PEREMPUAN,+PERLINDUNGAN+ANAK,+PENGENDALIAN+PENDUDUK+DAN+KELUARGA+BERENCANA+(P3KB)+KOTA+BENGKULU/@-3.8143923,102.2866442,17z/data=!3m1!4b1!4m6!3m5!1s0x2e36b1c49a034d4f:0x25bc06bf4717c364!8m2!3d-3.8143923!4d102.2866442!16s%2Fg%2F11gjs1_l_c?hl=id"
  },
  {
    "title": "Dinas Pemberdayaan Perempuan dan Perlindungan Anak Provinsi Sumsel",
    "street": "Suryani Nasution, Jl. Ade Irma Nasution No.1254, Sungai Pangeran, Kec. Ilir Tim. I, Kota Palembang, Sumatera Selatan 30121",
    "city": "Kota Palembang",
    "state": "Sumatera Selatan",
    "website": null,
    "phone": "0711314004",
    "latitude": "-2.7520135",
    "longitude": "101.3832055",
    "url": "https://www.google.com/maps/place/Dinas+Pemberdayaan+Perempuan+dan+Perlindungan+Anak+Provinsi+Sumsel/@-2.7520135,101.3832055,8z/data=!4m10!1m2!2m1!1sperlindungan+anak+dan+perempuan+sumatera+selatan!3m6!1s0x2e3b75e07ea23f55:0x2e7b6776ab0a6a8b!8m2!3d-2.9768503!4d104.749167!15sCjBwZXJsaW5kdW5nYW4gYW5hayBkYW4gcGVyZW1wdWFuIHN1bWF0ZXJhIHNlbGF0YW6SARFnb3Zlcm5tZW50X29mZmljZeABAA!16s%2Fg%2F11c20cbltc?authuser=0&entry=ttu"
  },
  {
    "title": "Dinas Pemberdayaan Perempuan, Perlindungan Anak, Pengendalian Penduduk dan KB Kepulauan Riau",
    "street": "Dompak, Bukit Bestari, Tanjung Pinang City, Riau Islands 29124",
    "city": "Kota Tanjung Pinang",
    "state": "Kepulauan Riau",
    "website": "http://bpppa.kepriprov.go.id/",
    "phone": null,
    "latitude": "0.8720787",
    "longitude": "104.4471894",
    "url": "https://www.google.com/maps/place/Dinas+Pemberdayaan+Perempuan,+Perlindungan+Anak,+Pengendalian+Penduduk+dan+KB+Kepulauan+Riau/@0.8720787,104.4471894,17z/data=!3m1!4b1!4m6!3m5!1s0x31d90d629d7d5dc5:0xed8e69bfb713acac!8m2!3d0.8720787!4d104.4471894!16s%2Fg%2F11h_c6rkvx?hl=id"
  },
  {
    "title": "Dinas Pemberdayaan Perempuan Perlindungan Anak dan Pengendalian Penduduk Prov.Jambi",
    "street": "Jl. A Yani No.09",
    "city": "Kota Jambi",
    "state": "Jambi",
    "website": "https://dp3ap2.jambiprov.go.id/",
    "phone": "+62 813-6843-7314",
    "latitude": "-1.6076055",
    "longitude": "103.5834415",
    "url": "https://www.google.com/maps/place/Dinas+Pemberdayaan+Perempuan+Perlindungan+Anak+dan+Pengendalian+Penduduk+Prov.Jambi/@-1.6076055,103.5834415,17z/data=!3m1!4b1!4m6!3m5!1s0x2e25890aeb2926c5:0x40be1327cd2589a8!8m2!3d-1.6076055!4d103.5834415!16s%2Fg%2F11rd232zpr?hl=id"
  },
  {
    "title": "Dinas Pemberdayaan Perempuan Dan Perlindungan Anak Provinsi Lampung",
    "street": "Jl. Beringin II No.40",
    "city": "Kota Bandar Lampung",
    "state": "Lampung",
    "website": "https://dinaspppa.lampungprov.go.id/",
    "phone": null,
    "latitude": "-5.4418493",
    "longitude": "105.2574805",
    "url": "https://www.google.com/maps/place/Dinas+Pemberdayaan+Perempuan+Dan+Perlindungan+Anak+Provinsi+Lampung/@-5.4418493,105.2574805,17z/data=!3m1!4b1!4m6!3m5!1s0x2e40db9a8fd7c177:0x258f709a255ddb92!8m2!3d-5.4418493!4d105.2574805!16s%2Fg%2F11fpgs9r6c?hl=id"
  },
  {
    "title": "Dinas Pemberdayaan Perempuan, Perlindungan Anak dan Keluarga Berencana Kota Pangkalpinang",
    "street": "Jl. Rasakunda Gg. Delima Siam VI",
    "city": "Kota Pangkal Pinang",
    "state": "Kepulauan Bangka Belitung",
    "website": null,
    "phone": null,
    "latitude": "-2.1435698",
    "longitude": "106.1173437",
    "url": "https://www.google.com/maps/place/Dinas+Pemberdayaan+Perempuan,+Perlindungan+Anak+dan+Keluarga+Berencana+Kota+Pangkalpinang/@-2.1435698,106.1173437,17z/data=!3m1!4b1!4m6!3m5!1s0x2e22c7e6037fa285:0x7d6ea0cb8249c9fe!8m2!3d-2.1435698!4d106.1173437!16s%2Fg%2F11r524mxd5?hl=id"
  },
  {
    "title": "Dinas Pemberdayaan Perempuan & Perlindungan Anak Prov. Kalbar",
    "street": "Jl. Slt. Abdurrahman No.101",
    "city": "Kota Pontianak",
    "state": "Kalimantan Barat",
    "website": "https://sikedip.kalbarprov.go.id/opd-kab-kota/dinas-sosial-pemberdayaan-perempuan-dan-perlindungan-anak-kab-bengkayang",
    "phone": "+62 813-4534-6072",
    "latitude": "-0.040416",
    "longitude": "109.326576",
    "url": "https://www.google.com/maps/place/Dinas+Pemberdayaan+Perempuan+%26+Perlindungan+Anak+Prov.+Kalbar/@-0.040416,109.326576,17z/data=!3m1!4b1!4m6!3m5!1s0x2e1d5906c6b0b317:0xed20190c4253ffa9!8m2!3d-0.040416!4d109.326576!16s%2Fg%2F11b6_zsr8c?hl=id"
  },
  {
    "title": "Badan Pemberdayaan Perempuan Perlindungan Anak Dan Keluarga Berencana Kabupaten Bulungan",
    "street": "Jl. Manggis III, Tj. Selor Hilir, Kec. Tj. Selor, Kabupaten Bulungan, Kalimantan Utara 77214",
    "city": "Kabupaten Balungan",
    "state": "Kalimantan Utara",
    "website": null,
    "phone": "055221231",
    "latitude": "2.9087534",
    "longitude": "111.0058594",
    "url": "https://www.google.com/maps/place/Women's+Empowerment+Agency+for+Child+Protection+and+Family+Planning+Of+Bulungan/@2.9087534,111.0058594,7z/data=!4m10!1m2!2m1!1sperlindungan+anak+dan+perempuan+kalimantan+utara!3m6!1s0x3213ce22bb6813e5:0xdb99fa8a6b3ed972!8m2!3d2.8415867!4d117.3724232!15sCjBwZXJsaW5kdW5nYW4gYW5hayBkYW4gcGVyZW1wdWFuIGthbGltYW50YW4gdXRhcmGSARdsb2NhbF9nb3Zlcm5tZW50X29mZmljZeABAA!16s%2Fg%2F11hcj80lyb?authuser=0&entry=ttu"
  },

  {
    "title": "Dinas Kependudukan, Pemberdayaan Perempuan dan Perlindungan Anak",
    "street": "Jl. Dewi Sartika No.13",
    "city": "Kota Samarinda",
    "state": "Kalimantan Timur",
    "website": "http://www.dkp3a.kaltimprov.go.id/",
    "phone": null,
    "latitude": "-0.4957031",
    "longitude": "117.1560238",
    "url": "https://www.google.com/maps/place/Dinas+Kependudukan,+Pemberdayaan+Perempuan+dan+Perlindungan+Anak/@-0.4957031,117.1560238,17z/data=!3m1!4b1!4m6!3m5!1s0x2df67f717fd68499:0xd83685e1ab759e37!8m2!3d-0.4957031!4d117.1560238!16s%2Fg%2F11c6cd2vm0?hl=id"
  },
  {
    "title": "Dinas P2KB",
    "street": "Jl. Pendidikan, Sekumpul, Kec. Martapura, Kabupaten Banjar, Kalimantan Selatan 70613Pendidikan",
    "city": "Kabupaten Banjar",
    "state": "Kalimantan Selatan",
    "website": null,
    "phone": "+62 511 4721221",
    "latitude": "-3.4275574",
    "longitude": "114.8520567",
    "url": "https://www.google.com/maps/place/Dinas+P2KB/@-3.4275574,114.8520567,17z/data=!3m1!4b1!4m6!3m5!1s0x2de681adcb6c95cf:0x80420cf05ed9d05e!8m2!3d-3.4275574!4d114.8520567!16s%2Fg%2F11hbpww3f4?hl=id"
  },
  {
    "title": "Dinas Pemberdayaan Perempuan dan Perlindungan Anak, Pengendalian Penduduk dan Keluarga Berencana Provinsi Kalimantan Tengah",
    "street": "Palangka, Jekan Raya, Palangka Raya City, Central Kalimantan 74874",
    "city": "Kota Palangka Raya",
    "state": "Kalimantan Tengah",
    "website": "http://dp3appkb.kalteng.go.id/",
    "phone": "+62 536 3224547",
    "latitude": "-2.2048612",
    "longitude": "113.918775",
    "url": "https://www.google.com/maps/place/Dinas+Pemberdayaan+Perempuan+dan+Perlindungan+Anak,+Pengendalian+Penduduk+dan+Keluarga+Berencana+Provinsi+Kalimantan+Tengah/@-2.2048612,113.918775,17z/data=!3m1!4b1!4m6!3m5!1s0x2dfcb3ca7be8081d:0x42c417be59280f1e!8m2!3d-2.2048612!4d113.918775!16s%2Fg%2F11rq3y4_3j?hl=id"
  },
  {
    "title": "Dinas Pemberdayaan Perempuan, Perlindungan Anak, Kependudukan dan Keluarga Berencana (DP3AKKB) Provinsi Banten",
    "street": "Kawasan Pusat Pemerintahan Provinsi Banten (KP3B) Jl. Syech Nawawi Al-Bantani Palima Curug",
    "city": "Kota Serang",
    "state": "Banten",
    "website": "http://dp3akkb.bantenprov.go.id/",
    "phone": "+62 254 7824688",
    "latitude": "-6.1723051",
    "longitude": "106.1561782",
    "url": "https://www.google.com/maps/place/Dinas+Pemberdayaan+Perempuan,+Perlindungan+Anak,+Kependudukan+dan+Keluarga+Berencana+(DP3AKKB)+Provinsi+Banten/@-6.1723051,106.1561782,17z/data=!3m1!4b1!4m6!3m5!1s0x2e42201e75df4557:0x8b9e4fda290d3f63!8m2!3d-6.1723051!4d106.1561782!16s%2Fg%2F11d_201_1b?hl=id"
  },
  {
    "title": "UPT PPPA Provinsi DKI Jakarta",
    "street": "Jalan Raya Bekasi Timur KM.18, Jatinegara Kaum, Pulo Gadung, RT.7/RW.6",
    "city": "Kota Jakarta Timur",
    "state": "Daerah Khusus Ibukota Jakarta",
    "website": "https://www.kemenpppa.go.id/",
    "phone": "+62 21 47882898",
    "latitude": "-6.1901723",
    "longitude": "106.9060769",
    "url": "https://www.google.com/maps/place/UPT+PPPA+Provinsi+DKI+Jakarta/@-6.1901723,106.9060769,17z/data=!3m1!4b1!4m6!3m5!1s0x2e69f4b1085af9b3:0x9cddce3a0f111f22!8m2!3d-6.1901723!4d106.9060769!16s%2Fg%2F1pzskgz9k?hl=id"
  },
  {
    "title": "Dinas Pemberdayaan Perempuan dan Perlindungan Anak - DP3A Kota Bandung",
    "street": "Citarum, Bandung Wetan, Bandung City, West Java 40115",
    "city": "Kota Bandung",
    "state": "Jawa Barat",
    "website": null,
    "phone": null,
    "latitude": "-6.9081322",
    "longitude": "107.6134671",
    "url": "https://www.google.com/maps/place/Dinas+Pemberdayaan+Perempuan+dan+Perlindungan+Anak+-+DP3A+Kota+Bandung/@-6.9081322,107.6134671,17z/data=!3m1!4b1!4m6!3m5!1s0x2e68e7ddd9e830f5:0xfa4c047c275c9d2b!8m2!3d-6.9081322!4d107.6134671!16s%2Fg%2F11hj7k1ql2?hl=id"
  },
  {
    "title": "Dinas Pemberdayaan Masyarakat, Perempuan, Perlindungan Anak, Pengendalian Penduduk, Dan Keluarga Berencana Kota Magelang",
    "street": "Jl. Jend. Sudirman No.44",
    "city": "Kota Magelang",
    "state": "Jawa Tengah",
    "website": "http://dp4kb.magelangkota.go.id/",
    "phone": "+62 293 362461",
    "latitude": "-7.497852",
    "longitude": "110.2231727",
    "url": "https://www.google.com/maps/place/Dinas+Pemberdayaan+Masyarakat,+Perempuan,+Perlindungan+Anak,+Pengendalian+Penduduk,+Dan+Keluarga+Berencana+Kota+Magelang/@-7.497852,110.2231727,17z/data=!3m1!4b1!4m6!3m5!1s0x2e7a8f39d0c48a8d:0xfad5e4f75f84d595!8m2!3d-7.497852!4d110.2231727!16s%2Fg%2F11btmb0c48?hl=id"
  },
  {
    "title": "Dinas Pemberdayaan Perempuan, Perlindungan Anak dan Pengendalian Penduduk (DP3AP2) Daerah Istimewa Yogyakarta",
    "street": "Jl. Tentara Rakyat Mataram No.31",
    "city": "Kota Yogyakarta",
    "state": "Daerah Istimewa Yogyakarta",
    "website": "http://www.dp3ap2.jogjaprov.go.id/",
    "phone": "+62 274 562714",
    "latitude": "-7.7851071",
    "longitude": "110.3573534",
    "url": "https://www.google.com/maps/place/Dinas+Pemberdayaan+Perempuan,+Perlindungan+Anak+dan+Pengendalian+Penduduk+(DP3AP2)+Daerah+Istimewa+Yogyakarta/@-7.7851071,110.3573534,17z/data=!3m1!4b1!4m6!3m5!1s0x2e7a583d27b3156b:0x687ba19ee706c38a!8m2!3d-7.7851071!4d110.3573534!16s%2Fg%2F11byl18_r8?hl=id"
  },
  {
    "title": "Dinas Pengendalian Penduduk, Pemberdayaan Perempuan dan Perlindungan Anak Kota Surabaya",
    "street": "Jl. Kedungsari No.18, RT.002/RW.01",
    "city": "Surabaya",
    "state": "Jawa Timur",
    "website": "https://www.surabaya.go.id/id/page/0/23743/dinas-pengendalian-kependudukan--pemberdayaan-perempuan-dan-perlindungan-anak",
    "phone": null,
    "latitude": "-7.2677303",
    "longitude": "112.734672",
    "url": "https://www.google.com/maps/place/Dinas+Pengendalian+Penduduk,+Pemberdayaan+Perempuan+dan+Perlindungan+Anak+Kota+Surabaya/@-7.2677303,112.734672,17z/data=!3m1!4b1!4m6!3m5!1s0x2dd7fb98afab10cd:0x612d533c2159a60!8m2!3d-7.2677303!4d112.734672!16s%2Fg%2F11jmydnkkz?hl=id"
  },
  {
    "title": "Dinas Sosial, Pemberdayaan Perempuan dan Perlindungan Anak Provinsi Bali",
    "street": "Jl. Cok Agung Tresna No.2",
    "city": "Kota Denpasar",
    "state": "Bali",
    "website": "https://dissosp3a.baliprov.go.id/",
    "phone": "+62 361 228927",
    "latitude": "-8.6672559",
    "longitude": "115.2255315",
    "url": "https://www.google.com/maps/place/Dinas+Sosial,+Pemberdayaan+Perempuan+dan+Perlindungan+Anak+Provinsi+Bali/@-8.6672559,115.2255315,17z/data=!3m1!4b1!4m6!3m5!1s0x2dd2408d9dbd95d5:0x6b7ce2e6ed0311fd!8m2!3d-8.6672559!4d115.2255315!16s%2Fg%2F11fylnvqb3?hl=id"
  },
  {
    "title": "Kantor Dinas Pemberdayaan Perempuan, Perlindungan Anak, Pengendalian Penduduk dan Keluarga Berencana Kabupaten Sumba Timur",
    "street": "Jl. Jend Soeharto, Hambala, Kec. Kota Waingapu, Kabupaten Sumba Timur, Nusa Tenggara Tim.",
    "city": "Kabupaten Sumba Timur",
    "state": "Nusa Tenggara Tim.",
    "website": null,
    "phone": null,
    "latitude": "-9.6613056",
    "longitude": "120.2574667",
    "url": "https://www.google.com/maps/place/Kantor+Dinas+Pemberdayaan+Perempuan,+Perlindungan+Anak,+Pengendalian+Penduduk+dan+Keluarga+Berencana+Kabupaten+Sumba+Timur/@-9.6613056,120.2574667,17z/data=!3m1!4b1!4m6!3m5!1s0x2c4c9b26d16c1005:0xb5645d831aa46940!8m2!3d-9.6613056!4d120.2574667!16s%2Fg%2F11qnl3_mgm?hl=id"
  },
  {
    "title": "DINAS PEMBERDAYAAN PEREMPUAN DAN PERLINDUNGAN ANAK KOTA BIMA",
    "street": "Jl. Soekarno Hatta No.02",
    "city": "Kab. Bima",
    "state": "Nusa Tenggara Bar.",
    "website": null,
    "phone": "+62 374 646413",
    "latitude": "-8.472175",
    "longitude": "118.7629339",
    "url": "https://www.google.com/maps/place/DINAS+PEMBERDAYAAN+PEREMPUAN+DAN+PERLINDUNGAN+ANAK+KOTA+BIMA/@-8.472175,118.7629339,17z/data=!3m1!4b1!4m6!3m5!1s0x2db589525cc0272d:0x4d62943a4643ad4!8m2!3d-8.472175!4d118.7629339!16s%2Fg%2F11b88lc1gx?hl=id"
  },
  {
    "title": "Dinas pengendalian Penduduk, Keluarga Berencana, Pemberdayaan Perempuan Dan Perlindungan Anak",
    "street": "Jl. Jend. Sudirman No.77",
    "city": "Kota Gorontalo",
    "state": "Gorontalo",
    "website": null,
    "phone": "+62 435 821713",
    "latitude": "0.5544625",
    "longitude": "123.0559863",
    "url": "https://www.google.com/maps/place/Dinas+pengendalian+Penduduk,+Keluarga+Berencana,+Pemberdayaan+Perempuan+Dan+Perlindungan+Anak/@0.5544625,123.0559863,17z/data=!3m1!4b1!4m6!3m5!1s0x32792b6a5ff9e5a9:0x886f44596bf0bee7!8m2!3d0.5544625!4d123.0559863!16s%2Fg%2F11gmvrhf55?hl=id"
  },
  {
    "title": "KANTOR DINAS PEMBERDAYAAN PEREMPUAN PERLINDUNGAN ANAK PENGENDALIAN PENDUDUK DAN KELUARGA BERENCANA",
    "street": "Jl. Abdul Malik Pattana Endeng",
    "city": "Kabupaten Mamuju",
    "state": "Sulawesi Barat",
    "website": null,
    "phone": "+62 853-9805-1407",
    "latitude": "-2.6654169",
    "longitude": "118.852271",
    "url": "https://www.google.com/maps/place/KANTOR+DINAS+PEMBERDAYAAN+PEREMPUAN+PERLINDUNGAN+ANAK+PENGENDALIAN+PENDUDUK+DAN+KELUARGA+BERENCANA/@-2.6654169,118.852271,17z/data=!3m1!4b1!4m6!3m5!1s0x2d92d78585b0b0a3:0xa101cf34849e8991!8m2!3d-2.6654169!4d118.852271!16s%2Fg%2F11l9lzqrsg?hl=id"
  },
  {
    "title": "Dinas Pemberdayaan Perempuan dan Perlindungan Provinsi Sulawesi Tengah",
    "street": "Jl. Mangunsarkoro No.31",
    "city": "Kota Palu",
    "state": "Sulawesi Tengah",
    "website": "http://dp3a.sultengprov.go.id/",
    "phone": null,
    "latitude": "-0.8965543",
    "longitude": "119.8838019",
    "url": "https://www.google.com/maps/place/Dinas+Pemberdayaan+Perempuan+dan+Perlindungan+Provinsi+Sulawesi+Tengah/@-0.8965543,119.8838019,17z/data=!3m1!4b1!4m6!3m5!1s0x2d8bee76701d3e49:0xf34aa8205033a6c9!8m2!3d-0.8965543!4d119.8838019!16s%2Fg%2F11bzrpdxnm?hl=id"
  },
  {
    "title": "Badan Pemberdayaan Perempuan Dan Anak (P2TP2A) Sulawesi Utara",
    "street": "Jl. 17 Agustus No.69",
    "city": "Kota Manado",
    "state": "Sulawesi Utara",
    "website": null,
    "phone": "+62 431 3336834",
    "latitude": "1.466236",
    "longitude": "124.845905",
    "url": "https://www.google.com/maps/place/Badan+Pemberdayaan+Perempuan+Dan+Anak+(P2TP2A)+Sulawesi+Utara/@1.466236,124.845905,17z/data=!3m1!4b1!4m6!3m5!1s0x328774db89ef7b71:0x6675f9488acdc852!8m2!3d1.466236!4d124.845905!16s%2Fg%2F1pv5zg4l4?hl=id"
  },
  {
    "title": "Dinas Pemberdayaan Perempuan dan Perlindungan Provinsi Sulawesi Tengah",
    "street": "Jl. Mangunsarkoro No.31",
    "city": "Kota Palu",
    "state": "Sulawesi Tengah",
    "website": "http://dp3a.sultengprov.go.id/",
    "phone": null,
    "latitude": "-0.8965543",
    "longitude": "119.8838019",
    "url": "https://www.google.com/maps/place/Dinas+Pemberdayaan+Perempuan+dan+Perlindungan+Provinsi+Sulawesi+Tengah/@-0.8965543,119.8838019,17z/data=!3m1!4b1!4m6!3m5!1s0x2d8bee76701d3e49:0xf34aa8205033a6c9!8m2!3d-0.8965543!4d119.8838019!16s%2Fg%2F11bzrpdxnm?hl=id"
  },
  {
    "title": "Dinas Pemberdayaan Masyarakat Desa, Pemberdayaan Perempuan Dan Perlindungan Anak",
    "street": "Jl. Kestadion",
    "city": "Kabupaten Bantaeng",
    "state": "Sulawesi Selatan",
    "website": null,
    "phone": null,
    "latitude": "-5.5519255",
    "longitude": "119.9664866",
    "url": "https://www.google.com/maps/place/Dinas+Pemberdayaan+Masyarakat+Desa,+Pemberdayaan+Perempuan+Dan+Perlindungan+Anak/@-5.5519255,119.9664866,17z/data=!3m1!4b1!4m6!3m5!1s0x2dbeb35d52a55983:0x397165231eb2ff7d!8m2!3d-5.5519255!4d119.9664866!16s%2Fg%2F11fb0r0byy?hl=id"
  },
  {
    "title": "Dinas Pengendalian Penduduk KB Pemberdayaan Perempuan dan Perlindungan Anak Kab. Halmahera Tengah",
    "street": "JL. Raya Weda-Bale, Km. 3 No. 5, 97853",
    "city": "Kabupaten Halmahera Tengah",
    "state": "Maluku Utara",
    "website": null,
    "phone": "+62 852-1117-2018",
    "latitude": "0.500258",
    "longitude": "128.183413",
    "url": "https://www.google.com/maps/place/Dinas+Pengendalian+Penduduk+KB+Pemberdayaan+Perempuan+dan+Perlindungan+Anak+Kab.+Halmahera+Tengah/@0.500258,128.183413,17z/data=!3m1!4b1!4m6!3m5!1s0x329c4d06dd5240d3:0x27253cefa036864f!8m2!3d0.500258!4d128.183413!16s%2Fg%2F11bc7pj0qw?hl=id"
  },
  {
    "title": "Dinas Pemberdayaan Perempuan dan Perlindungan Anak",
    "street": "Uritetu, Sirimau, Kota Ambon, Maluku",
    "city": "Kota Ambon",
    "state": "Maluku",
    "website": "http://uritetu.wordpress.com/",
    "phone": null,
    "latitude": "-3.6967499",
    "longitude": "128.1854516",
    "url": "https://www.google.com/maps/place/Dinas+Pemberdayaan+Perempuan+dan+Perlindungan+Anak/@-3.6967499,128.1854516,17z/data=!3m1!4b1!4m6!3m5!1s0x2d6ce84dcd744863:0x9f46fe914b31d1c7!8m2!3d-3.6967499!4d128.1854516!16s%2Fg%2F11dzdcf1br?hl=id"
  },
  {
    "title": "Dinas Pemberdayaan Perempuan, Perlindungan Anak Dan Keluarga Berencana Provinsi Papua",
    "street": "Gurabesi, Jayapura Utara, Gurabesi, Kec. Jayapura Utara, Kota Jayapura, Papua",
    "city": "Jayapura Utara",
    "state": "Gurabesi",
    "website": null,
    "phone": null,
    "latitude": "-4.2475488",
    "longitude": "113.0431994",
    "url": "https://www.google.com/maps/place/Dinas+Pemberdayaan+Perempuan,+Perlindungan+Anak+Dan+Keluarga+Berencana+Provinsi+Papua/@-4.2475488,113.0431994,5z/data=!4m10!1m2!2m1!1spemberdayaan+perempuan+dan+anak+papua!3m6!1s0x686c5846b65d1a67:0x74420ac7c238ba8f!8m2!3d-2.5413403!4d140.7057302!15sCiVwZW1iZXJkYXlhYW4gcGVyZW1wdWFuIGRhbiBhbmFrIHBhcHVhkgERZ292ZXJubWVudF9vZmZpY2XgAQA!16s%2Fg%2F11fzvl2lfn?authuser=0&entry=ttu"
  }
]
